,City,Cloudiness,Country,Date,Humidity,Lat,Lng,Max Temp,Wind Speed
0,Shangzhi,100,CN,1578270081,82,45.21,127.96,11.59,2.08
1,Kahului,20,US,1578269861,54,20.89,-156.47,82.4,24.16
2,Vaini,75,IN,1578270081,82,15.34,74.49,68.0,4.7
3,Dalby,90,AU,1578270082,45,-27.18,151.26,89.01,13.87
4,Butembo,65,CD,1578270082,93,0.12,29.29,60.24,3.56
5,Galveston,90,US,1578270082,75,40.58,-86.19,44.6,14.99
6,Iguape,34,BR,1578270082,97,-24.7,-47.56,70.25,1.88
7,Nokaneng,100,BW,1578270082,86,-19.66,22.19,70.83,1.52
8,Vila Velha,40,BR,1578269820,74,-3.71,-38.6,86.0,5.82
9,Airai,100,TL,1578270083,73,-8.93,125.41,75.27,4.38
10,Rikitea,80,PF,1578270083,77,-23.12,-134.97,76.69,14.09
11,Avarua,100,CK,1578270083,88,-21.21,-159.78,80.6,5.82
12,Cabo San Lucas,40,MX,1578270024,73,22.89,-109.91,73.99,4.7
13,Luanda,40,AO,1578270084,88,-8.83,13.24,78.8,3.36
14,Otradnoye,83,RU,1578270084,79,59.77,30.8,25.0,2.24
15,Nikolskoye,90,RU,1578270084,79,59.7,30.79,25.0,2.24
16,Temir,100,KZ,1578270084,94,49.14,57.13,17.49,4.94
17,Floro,100,NO,1578270085,100,61.6,5.03,48.0,21.92
18,Novikovo,100,RU,1578270086,91,51.15,37.89,27.72,6.98
19,Tasiilaq,100,GL,1578270086,93,65.61,-37.64,22.62,32.95
20,Hermanus,100,ZA,1578270086,93,-34.42,19.24,64.0,8.34
21,Jamestown,67,AU,1578270086,71,-33.21,138.6,64.87,8.46
22,Tucurui,100,BR,1578270088,93,-3.77,-49.67,75.43,4.29
23,Ushuaia,75,AR,1578270088,66,-54.81,-68.31,50.0,26.4
24,Carnarvon,12,ZA,1578270088,73,-30.97,22.13,60.42,7.76
25,Cienfuegos,59,CU,1578270089,68,22.15,-80.44,68.0,6.93
26,Lorengau,78,PG,1578270089,71,-2.02,147.27,84.9,9.01
27,Zheleznodorozhnyy,75,RU,1578270089,93,55.75,38.0,32.0,4.47
28,Mae Hong Son,90,MM,1578270090,93,19.3,97.96,64.4,2.1
29,Mataura,93,NZ,1578270090,70,-46.19,168.86,53.01,31.0
30,Mahebourg,75,MU,1578270090,94,-20.41,57.7,75.2,16.11
31,Salihorsk,23,BY,1578270090,88,52.79,27.54,27.54,6.2
32,Ikeda,20,JP,1578270090,70,34.82,135.43,44.6,3.36
33,Ponta do Sol,12,BR,1578270090,91,-20.63,-46.0,68.43,2.06
34,Butaritari,100,KI,1578270091,75,3.07,172.79,85.48,15.79
35,Cape Town,40,ZA,1578270002,88,-33.93,18.42,64.99,5.82
36,Punta Arenas,40,CL,1578270091,57,-53.16,-70.91,50.0,23.04
37,Madarounfa,0,NE,1578270091,23,13.3,7.16,61.77,11.32
38,Chokurdakh,77,RU,1578270092,100,70.62,147.9,-22.97,1.52
39,Marbella,1,ES,1578269907,72,36.51,-4.89,59.0,17.22
40,Port Elizabeth,1,US,1578270092,55,39.31,-74.98,39.2,10.29
41,Rathdrum,75,IE,1578270092,70,52.93,-6.23,48.99,10.29
42,Nome,1,US,1578269904,63,30.04,-94.42,66.0,5.82
43,Vestmanna,100,FO,1578270093,100,62.16,-7.17,48.2,16.11
44,Mount Gambier,4,AU,1578270093,45,-37.83,140.78,66.2,8.05
45,Portland,0,US,1578270093,73,43.66,-70.25,28.0,6.93
46,New Norfolk,20,AU,1578270093,51,-42.78,147.06,66.99,10.29
47,Beringovskiy,53,RU,1578269809,80,63.05,179.32,-7.24,16.37
48,Dikson,98,RU,1578270094,93,73.51,80.55,18.41,17.52
49,Saskylakh,27,RU,1578270094,94,71.97,114.09,-18.71,15.28
50,Georgetown,4,GY,1578269900,78,6.8,-58.16,78.8,4.7
51,Puerto Ayora,75,EC,1578270094,69,-0.74,-90.35,80.6,16.11
52,Busselton,0,AU,1578270095,72,-33.64,115.35,73.0,1.01
53,Albany,75,US,1578269853,63,42.65,-73.75,30.2,11.41
54,Hilo,90,US,1578270025,58,19.71,-155.08,82.4,8.05
55,Galle,19,GN,1578270096,51,10.08,-12.83,65.44,1.97
56,Thompson,90,CA,1578270096,84,55.74,-97.86,6.8,9.17
57,Touros,40,BR,1578270096,78,-5.2,-35.46,80.6,11.41
58,Kamenka,100,MD,1578270097,83,48.03,28.7,32.0,1.99
59,Barrow,100,AR,1578270097,81,-38.31,-60.23,63.0,18.52
60,Payson,75,US,1578269820,80,40.04,-111.73,37.0,6.93
61,Gimli,19,CA,1578270001,73,50.63,-96.99,19.0,7.74
62,Shenjiamen,66,CN,1578270098,91,29.96,122.3,60.64,19.69
63,Bobrov,99,RU,1578270098,97,51.1,40.03,29.75,8.05
64,Norman Wells,20,CA,1578270098,73,65.28,-126.83,-29.2,4.7
65,Buala,72,SB,1578270098,70,-8.15,159.59,85.51,8.19
66,Laguna,75,BZ,1578270098,73,16.17,-88.94,73.4,6.93
67,General Roca,24,AR,1578270098,28,-39.03,-67.58,69.8,18.34
68,Kavieng,50,PG,1578270099,70,-2.57,150.8,85.19,6.98
69,Inirida,3,CO,1578270099,71,3.87,-67.92,74.66,2.66
70,Pevek,0,RU,1578270099,83,69.7,170.27,-6.12,5.61
71,San Quintin,46,PH,1578270100,73,17.54,120.52,71.87,7.2
72,Kapaa,40,US,1578270100,74,22.08,-159.32,80.6,18.34
73,Novobiryusinskiy,100,RU,1578270100,96,56.96,97.71,24.87,5.32
74,Vostok,65,RU,1578270100,95,46.45,135.83,-0.17,1.77
75,Margate,20,AU,1578270101,51,-43.03,147.26,66.99,10.29
76,Rossland,100,CA,1578270101,93,49.08,-117.8,34.0,2.53
77,Qaanaaq,0,GL,1578270102,47,77.48,-69.36,-27.0,1.23
78,Powell River,40,CA,1578270102,65,49.84,-124.52,43.0,3.36
79,Alofi,0,NU,1578270102,74,-19.06,-169.92,84.2,13.87
80,Derzhavinsk,99,KZ,1578270102,95,51.1,66.31,17.73,3.4
81,Puerto Barrios,75,GT,1578270103,73,15.72,-88.58,73.4,6.93
82,Kikwit,100,CD,1578270103,92,-5.04,18.82,71.06,1.77
83,Bathsheba,90,BB,1578270103,88,13.22,-59.52,75.2,15.19
84,Hobart,20,AU,1578270010,51,-42.88,147.33,66.99,10.29
85,Gejiu,11,CN,1578270104,96,23.36,103.16,52.14,6.06
86,Fortuna,40,US,1578270104,66,40.6,-124.16,55.0,9.17
87,Cherskiy,3,RU,1578270105,62,68.75,161.3,-8.36,5.5
88,Cayenne,90,GF,1578270105,83,4.94,-52.33,78.8,3.36
89,Bluff,5,AU,1578270105,45,-23.58,149.07,85.55,14.34
90,Golyshmanovo,91,RU,1578270105,94,56.4,68.37,11.55,10.33
91,Hovd,40,NO,1578270105,93,63.83,10.7,45.0,11.41
92,Upernavik,100,GL,1578270106,91,72.79,-56.15,-29.4,13.71
93,Bremervorde,100,DE,1578270106,86,53.48,9.13,42.01,11.41
94,Gorontalo,100,ID,1578270106,91,0.54,123.06,76.14,1.79
95,Duvan,81,RU,1578270106,93,55.69,57.9,19.76,7.31
96,Torbay,90,CA,1578270107,100,47.66,-52.73,30.99,26.4
97,Saint-Philippe,1,CA,1578270107,61,45.36,-73.48,21.99,8.05
98,Bredasdorp,100,ZA,1578270107,77,-34.53,20.04,62.6,3.36
99,Nuevitas,93,CU,1578270107,82,21.55,-77.27,68.0,6.93
100,Tezu,60,IN,1578270108,91,27.93,96.16,47.68,2.93
101,Hastings,13,NZ,1578270108,45,-39.64,176.84,67.14,19.91
102,Talcahuano,33,CL,1578270108,77,-36.72,-73.12,60.8,5.82
103,Chhabra,0,IN,1578270108,56,24.67,76.85,53.33,5.93
104,Tiksi,17,RU,1578270109,86,71.64,128.87,-13.4,13.22
105,Provideniya,100,RU,1578270109,80,64.42,-173.23,-9.87,9.13
106,Syracuse,90,US,1578269957,74,43.05,-76.15,33.01,4.7
107,Sitka,1,US,1578270109,43,37.17,-99.65,43.0,7.16
108,Seybaplaya,5,MX,1578270110,69,19.65,-90.67,73.4,11.41
109,Socorro,20,US,1578270110,21,31.65,-106.3,62.6,3.51
110,Atuona,32,PF,1578270110,69,-9.8,-139.03,81.37,6.89
111,Clyde River,1,CA,1578270110,51,70.47,-68.59,-41.8,9.17
112,Klaksvik,100,FO,1578270110,100,62.23,-6.59,48.2,16.11
113,Longyearbyen,20,NO,1578270111,70,78.22,15.63,-4.0,10.29
114,Ribeira Grande,100,PT,1578270111,94,38.52,-28.7,60.33,16.87
115,Luderitz,0,NA,1578270112,85,-26.65,15.16,63.39,26.17
116,Jamame,0,SO,1578270112,85,0.07,42.75,81.46,16.46
117,Codrington,75,AU,1578270112,51,-28.95,153.24,87.01,5.82
118,Ikalamavony,12,MG,1578270112,83,-21.17,46.6,67.69,4.29
119,Kaitangata,87,NZ,1578270113,62,-46.28,169.85,53.01,27.0
120,Ulverstone,8,AU,1578270113,59,-41.16,146.17,66.99,8.01
121,Punto Fijo,14,VE,1578270113,76,11.69,-70.21,79.79,10.74
122,Doha,92,QA,1578270000,82,25.29,51.53,62.6,9.17
123,Bodden Town,40,KY,1578270113,78,19.28,-81.25,78.8,14.99
124,Talnakh,75,RU,1578270113,92,69.49,88.39,21.2,26.84
125,Sun Prairie,20,US,1578270114,69,43.18,-89.21,37.99,9.17
126,Burns Lake,5,CA,1578270114,80,54.23,-125.76,20.91,5.3
127,Ngunguru,64,NZ,1578270114,59,-35.62,174.5,69.01,15.01
128,Djougou,2,BJ,1578270114,32,9.71,1.67,71.49,3.8
129,Bilma,61,NE,1578270114,31,18.69,12.92,52.27,6.67
130,Castro,20,CL,1578270114,71,-42.48,-73.76,53.6,5.82
131,Tura,100,RU,1578270115,89,64.27,100.22,12.27,8.16
132,Saint Anthony,90,US,1578270115,85,43.97,-111.68,24.01,9.17
133,Lavrentiya,9,RU,1578270115,84,65.58,-170.99,-12.06,6.15
134,Angoche,100,MZ,1578270115,88,-16.23,39.91,77.76,1.81
135,East London,95,ZA,1578270115,78,-33.02,27.91,72.45,5.01
136,Kasempa,100,ZM,1578270115,92,-13.46,25.83,65.62,2.1
137,Srednekolymsk,5,RU,1578270116,81,67.46,153.71,-10.64,2.66
138,Hami,68,CN,1578270116,45,42.84,93.51,18.3,2.82
139,Leningradskiy,0,RU,1578270116,54,69.38,178.42,-10.39,2.75
140,Hithadhoo,100,MV,1578270116,74,-0.6,73.08,82.89,9.6
141,Souillac,0,FR,1578270116,86,45.6,-0.6,37.99,4.7
142,Linxia,100,CN,1578270117,89,35.6,103.21,17.55,2.42
143,Half Moon Bay,1,US,1578269978,81,37.46,-122.43,60.01,11.41
144,Saint-Joseph,0,FR,1578270117,86,43.56,6.97,50.0,5.82
145,Kalmunai,6,LK,1578270117,77,7.42,81.82,81.64,16.6
146,Aykhal,100,RU,1578270117,83,65.95,111.51,-5.8,6.71
147,Jamuria,0,IN,1578270118,100,23.71,87.08,51.8,4.5
148,Inhambane,0,MZ,1578270118,83,-23.87,35.38,78.37,12.91
149,Axim,1,GH,1578270118,65,4.87,-2.24,73.51,0.4
150,Khatanga,100,RU,1578270118,97,71.98,102.47,-8.39,6.38
151,Korem,73,ET,1578270119,95,12.51,39.52,55.04,2.93
152,Hofn,100,IS,1578270120,94,64.25,-15.21,40.57,17.31
153,Camacha,40,PT,1578270120,77,33.08,-16.33,62.6,8.05
154,Santiago del Estero,0,AR,1578270120,27,-27.8,-64.26,86.54,7.29
155,Kloulklubed,75,PW,1578270120,83,7.04,134.26,82.4,16.11
156,Pangnirtung,100,CA,1578270121,91,66.15,-65.72,-46.61,2.13
157,Xinyu,38,CN,1578270121,94,27.8,114.93,55.17,1.59
158,Kovur,6,IN,1578270121,89,14.5,79.99,73.98,6.42
159,Port Alfred,70,ZA,1578270121,92,-33.59,26.89,68.0,3.71
160,Sombrerete,17,MX,1578270122,29,23.63,-103.64,51.58,7.4
161,Saldanha,3,PT,1578270122,79,41.42,-6.55,36.1,0.63
162,Praia da Vitoria,40,PT,1578270122,88,38.73,-27.07,64.4,19.6
163,Aklavik,90,CA,1578270122,62,68.22,-135.01,-16.6,6.93
164,Harper,1,US,1578270123,27,30.3,-99.24,66.0,4.76
165,Kibre Mengist,13,ET,1578270123,83,5.87,38.99,57.42,1.86
166,Hamilton,90,CA,1578270123,92,43.26,-79.87,33.8,9.17
167,Vredendal,82,ZA,1578270123,86,-31.68,18.49,64.45,7.58
168,Conceicao da Barra,94,BR,1578270124,87,-18.59,-39.73,79.72,19.28
169,Saint George,90,GR,1578270124,80,39.45,22.34,42.8,11.41
170,Yar-Sale,0,RU,1578270124,86,66.83,70.83,12.85,16.82
171,Erzin,75,TR,1578270124,100,36.95,36.2,45.0,3.36
172,Zyryanka,0,RU,1578270124,85,65.73,150.89,-10.95,3.11
173,Padang,17,ID,1578270124,84,-0.92,100.36,68.97,6.49
174,Porto Walter,30,BR,1578270125,62,-8.27,-72.74,80.67,4.05
175,Penzance,90,GB,1578270125,87,50.12,-5.53,52.0,14.99
176,Sioux Lookout,90,CA,1578270125,79,50.1,-91.92,19.4,19.46
177,Asbe Teferi,0,ET,1578270125,68,9.08,40.87,58.37,5.5
178,Guerrero Negro,0,MX,1578270125,31,27.97,-114.04,68.92,8.01
179,Quatre Cocos,75,MU,1578270125,94,-20.21,57.76,75.2,16.11
180,Tuktoyaktuk,75,CA,1578270126,74,69.44,-133.03,-22.0,9.17
181,Padilla,40,CO,1578270126,69,3.23,-76.31,75.2,13.87
182,Danane,22,CI,1578270126,27,7.26,-8.15,68.47,1.72
183,Brownwood,1,US,1578270126,33,31.71,-98.99,62.6,4.7
184,Saint-Louis,0,SN,1578270127,31,16.03,-16.5,66.2,4.7
185,Xam Nua,5,LA,1578270127,98,20.42,104.04,54.25,2.53
186,Lompoc,1,US,1578270127,48,34.64,-120.46,62.01,23.04
187,Iquique,20,CL,1578270127,50,-20.22,-70.14,75.2,8.05
188,Sumbe,96,AO,1578270128,88,-11.2,13.84,75.74,1.74
189,Victoria,75,BN,1578270027,79,5.28,115.24,84.2,5.82
190,Port Blair,17,IN,1578270088,79,11.67,92.75,80.67,13.87
191,San Patricio,20,PY,1578270129,47,-26.98,-56.83,81.01,6.89
192,Slavutych,47,UA,1578270129,86,51.52,30.76,28.63,9.13
193,Brae,100,GB,1578270129,93,60.4,-1.35,50.0,26.4
194,Ilulissat,100,GL,1578270129,55,69.22,-51.1,10.4,10.29
195,Lac du Bonnet,64,CA,1578270129,73,50.25,-96.06,19.0,7.81
196,Karla,90,EE,1578270129,92,59.37,24.93,32.0,12.75
197,Mar del Plata,84,AR,1578270129,33,-46.43,-67.52,67.12,10.22
198,Puerto Leguizamo,39,CO,1578270130,70,-0.19,-74.78,79.56,2.71
199,Lebu,20,ET,1578270130,76,8.96,38.73,53.6,5.82
200,Aldan,100,RU,1578270130,93,58.61,125.39,9.07,9.8
201,Saurimo,95,AO,1578270130,97,-9.66,20.4,65.55,3.62
202,Montepuez,100,MZ,1578270130,95,-13.13,39.0,71.65,3.06
203,Sur,27,OM,1578270130,79,22.57,59.53,67.66,12.35
204,Hasaki,40,JP,1578270131,56,35.73,140.83,41.0,8.05
205,Zonguldak,100,TR,1578270131,71,41.25,31.83,30.42,3.13
206,Mutoko,17,ZW,1578270131,94,-17.4,32.23,66.4,3.02
207,Osa,97,RU,1578270131,95,57.28,55.46,19.24,5.5
208,Uyuni,41,BO,1578270131,35,-20.46,-66.82,56.14,18.84
209,Najran,0,SA,1578270131,56,17.54,44.22,68.0,5.82
210,Mackay,75,CA,1578270131,53,53.65,-115.58,26.6,5.82
211,Gedinne,75,BE,1578270132,75,49.98,4.94,42.8,5.82
212,Kireyevsk,40,RU,1578270004,85,53.93,37.93,25.66,5.68
213,Yulara,90,AU,1578270132,77,-25.24,130.99,68.0,11.41
214,Witu,0,KE,1578270132,86,-2.39,40.44,79.5,8.68
215,Arlit,3,NE,1578270132,26,18.74,7.39,57.16,12.03
216,Mana,6,NG,1578270132,23,13.03,5.27,65.01,11.05
217,Faanui,50,PF,1578270133,76,-16.48,-151.75,81.9,13.94
218,Tabuk,17,PH,1578270133,85,17.41,121.44,69.64,1.9
219,Walvis Bay,48,NA,1578270133,82,-22.95,14.51,63.0,1.12
220,Kodiak,1,US,1578270133,59,39.95,-94.76,41.0,3.36
221,Omsukchan,11,RU,1578270133,53,62.53,155.8,-7.8,1.12
222,Tuy Hoa,99,VN,1578270133,86,13.08,109.3,73.56,14.34
223,Bambous Virieux,75,MU,1578270134,94,-20.34,57.76,75.2,16.11
224,Sao Filipe,66,CV,1578270134,62,14.9,-24.5,71.26,16.53
225,Mizque,76,BO,1578270134,75,-17.94,-65.34,64.02,5.17
226,Don Sak,20,TH,1578270135,94,9.32,99.69,75.2,11.54
227,Pascagoula,1,US,1578270136,81,30.37,-88.56,53.6,4.07
228,Itupiranga,20,BR,1578270136,78,-5.13,-49.33,78.8,2.24
229,Dukat,10,AL,1578270137,34,40.25,19.57,43.0,5.01
230,Coihaique,75,CL,1578270137,62,-45.58,-72.07,53.6,4.7
231,Kruisfontein,100,ZA,1578270137,87,-34.0,24.73,63.18,3.76
232,Bembibre,90,ES,1578270137,100,42.62,-6.42,30.0,2.24
233,Coahuayana,14,MX,1578270137,39,18.62,-100.35,79.72,2.24
234,Kattivakkam,40,IN,1578270137,94,13.22,80.32,75.99,2.24
235,Terrasini,0,IT,1578270138,47,38.15,13.08,55.99,34.45
236,The Pas,1,CA,1578270138,71,53.82,-101.24,8.6,11.41
237,Anadyr,0,RU,1578270138,74,64.73,177.51,-27.4,6.71
238,Namatanai,71,PG,1578270138,72,-3.66,152.44,84.29,4.0
239,Izmaylovo,98,RU,1578270138,93,53.72,47.24,21.52,1.99
240,Tacuarembo,26,UY,1578270139,45,-31.73,-55.98,79.16,9.01
241,Gornopravdinsk,99,RU,1578270139,95,60.06,69.92,21.33,8.43
242,Katsuura,40,JP,1578270139,66,33.93,134.5,41.0,9.17
243,Salvador,75,BR,1578270083,83,-12.98,-38.48,80.6,11.41
244,Yarada,75,IN,1578270139,78,17.65,83.27,73.4,6.93
245,Berlevag,75,NO,1578270139,79,70.86,29.09,23.0,8.05
246,Baghdad,75,IQ,1578269982,70,33.3,44.38,48.2,4.7
247,Sawakin,8,SD,1578270140,59,19.1,37.33,64.4,11.41
248,Iqaluit,90,CA,1578270140,68,63.75,-68.52,-20.0,4.7
249,Avera,1,US,1578270140,65,33.19,-82.53,51.8,4.7
250,Longhua,100,CN,1578270140,77,29.21,106.21,50.59,2.3
251,Gijon,0,ES,1578270140,87,43.54,-5.66,45.0,8.05
252,Luwingu,100,ZM,1578270141,93,-10.26,29.92,63.88,2.33
253,Chapais,90,CA,1578270141,84,49.78,-74.86,6.8,4.7
254,Kendari,100,ID,1578270141,90,-3.99,122.52,78.3,0.92
255,Nouadhibou,55,MR,1578270141,72,20.93,-17.03,59.0,13.87
256,West Bay,75,CA,1578270141,65,49.34,-123.21,45.0,20.8
257,Shelburne,90,CA,1578270118,86,44.08,-80.2,30.2,3.36
258,Gayny,96,RU,1578270142,94,60.3,54.33,23.18,6.96
259,Ahuimanu,75,US,1578270142,69,21.44,-157.84,80.6,10.29
260,Ciudad Bolivar,71,VE,1578270142,63,8.12,-63.55,80.15,11.52
261,Mende,0,FR,1578270142,61,44.52,3.5,33.1,3.85
262,Ukiah,1,US,1578270143,76,39.15,-123.21,55.99,4.52
263,Chuy,0,UY,1578270143,78,-33.69,-53.46,69.67,13.24
264,Harriston,90,CA,1578270143,92,43.92,-80.87,30.99,6.93
265,Fort Nelson,75,CA,1578270143,69,58.81,-122.69,-9.4,10.29
266,Batagay-Alyta,8,RU,1578270143,79,67.8,130.41,-21.95,4.21
267,Cuamba,100,MZ,1578270144,91,-14.8,36.54,68.56,1.23
268,Havelock,1,US,1578270144,60,34.88,-76.9,46.4,5.82
269,Kurskaya,24,RU,1578270144,73,44.04,44.45,32.41,2.26
270,Yellowknife,20,CA,1578270144,75,62.45,-114.38,-16.01,6.93
271,Henties Bay,81,NA,1578270144,90,-22.12,14.28,63.0,1.01
272,Rabak,23,SD,1578270144,12,13.18,32.74,63.45,14.72
273,Basco,1,US,1578270145,74,40.33,-91.2,44.01,9.17
274,Regen,0,DE,1578270145,100,48.97,13.13,32.0,1.81
275,Nagayo,75,JP,1578270145,76,32.82,129.89,55.4,11.41
276,Broken Hill,40,AU,1578270145,77,-31.97,141.45,59.0,21.92
277,Auki,82,NG,1578270145,29,12.18,6.51,64.47,11.86
278,Campos Novos,21,BR,1578270145,96,-27.4,-51.22,61.97,2.59
279,Maniitsoq,100,GL,1578270146,99,65.42,-52.9,6.66,33.87
280,Kieta,6,PG,1578270146,67,-6.22,155.63,84.58,3.42
281,Tiznit,0,MA,1578270146,74,29.7,-9.73,49.98,2.33
282,Plettenberg Bay,100,ZA,1578270146,86,-34.05,23.37,66.87,2.8
283,Muisne,90,EC,1578270146,88,0.61,-80.02,77.0,1.12
284,MBour,0,SN,1578270147,42,14.41,-16.97,71.6,11.41
285,Raudeberg,100,NO,1578270147,100,61.99,5.14,48.0,21.92
286,Lichtenburg,68,ZA,1578270147,40,-26.15,26.16,74.17,7.9
287,Ballina,100,IE,1578270147,86,54.11,-9.15,51.01,15.99
288,Esperance,17,AU,1578270147,26,-33.86,121.89,78.8,25.28
289,Severo-Kurilsk,100,RU,1578270147,93,50.68,156.12,20.46,12.84
290,Viedma,81,AR,1578270147,83,-40.81,-62.99,60.3,13.98
291,Kaeo,76,NZ,1578270148,87,-35.1,173.78,71.01,1.01
292,Zhetysay,100,KZ,1578270148,84,40.73,68.3,39.78,4.27
293,Sena Madureira,97,BR,1578270148,95,-9.07,-68.66,75.09,3.29
294,Caravelas,95,BR,1578270148,94,-17.73,-39.27,75.29,7.16
295,Cabra,0,ES,1578270148,93,37.47,-4.43,44.01,2.24
296,Batouri,0,CM,1578270148,33,4.44,14.36,70.79,4.25
297,High Prairie,100,CA,1578270038,69,55.43,-116.48,27.54,15.64
298,Biak,100,ID,1578270149,82,-0.91,122.88,80.55,12.28
299,Swan Hill,100,AU,1578270149,89,-35.34,143.56,59.0,5.01
300,Khuzhir,92,RU,1578270149,87,53.19,107.35,22.35,5.12
301,Pisco,57,PE,1578270149,83,-13.71,-76.2,71.6,18.34
302,Qaqortoq,90,GL,1578270149,67,60.72,-46.03,19.4,9.17
303,Carmarthen,82,GB,1578270150,87,51.86,-4.31,48.2,24.16
304,San Cristobal,88,HN,1578270150,85,14.68,-86.92,64.17,9.06
305,Salinopolis,89,BR,1578270150,77,-0.61,-47.36,82.38,15.7
306,Livingston,1,US,1578270150,81,32.58,-88.19,57.2,3.36
307,Arraial do Cabo,100,BR,1578270151,89,-22.97,-42.02,76.32,9.98
308,Broome,76,GB,1578270151,87,52.47,1.45,46.4,12.75
309,Emerald,90,AU,1578270152,51,-23.53,148.16,84.99,12.75
310,Ancud,20,CL,1578270040,71,-41.87,-73.83,53.6,5.82
311,Cockburn Town,2,TC,1578270152,68,21.46,-71.14,77.56,8.57
312,Lata,100,IN,1578270152,74,30.78,78.62,13.5,6.26
313,Karanganyar,20,ID,1578270152,100,-7.6,110.95,75.2,2.24
314,Geraldton,90,CA,1578270152,85,49.72,-86.95,15.8,6.93
315,Waddan,7,LY,1578270152,62,29.16,16.14,48.31,11.48
316,Peterhead,1,AU,1578270153,48,-34.83,138.5,73.0,11.41
317,Nakamura,20,JP,1578270153,48,35.17,136.87,42.8,11.41
318,Tabou,0,CI,1578270153,75,4.42,-7.36,71.44,1.36
319,Catabola,100,AO,1578270153,94,-12.14,17.29,62.83,2.55
320,Bethel,1,US,1578270153,68,60.79,-161.76,-14.8,6.93
321,Lagoa,0,PT,1578270153,76,37.14,-8.45,53.6,9.17
322,Starokostyantyniv,97,UA,1578270154,85,49.76,27.2,28.09,7.25
323,Khonsa,74,IN,1578270154,96,26.99,95.51,46.54,3.11
324,Norrkoping,100,SE,1578270154,93,58.59,16.18,42.8,11.41
325,Ahipara,78,NZ,1578270154,87,-35.17,173.16,71.01,1.01
326,Kulhudhuffushi,47,MV,1578270154,79,6.62,73.07,81.82,10.0
327,Goderich,100,CA,1578270154,90,43.74,-81.71,28.99,8.99
328,Haines Junction,51,CA,1578270155,83,60.75,-137.51,-7.37,4.43
329,Hay River,75,CA,1578270155,75,60.82,-115.79,-13.0,4.7
330,Krasnokholmskiy,89,RU,1578270006,95,55.99,55.05,18.28,5.82
331,Hualmay,34,PE,1578270155,74,-11.1,-77.61,70.16,7.0
332,Muros,1,ES,1578270155,100,42.77,-9.06,46.0,2.24
333,Beloha,0,MG,1578270155,84,-25.17,45.06,72.25,10.25
334,Soyo,91,AO,1578270155,80,-6.13,12.37,79.03,2.3
335,Praya,75,ID,1578270156,83,-8.71,116.27,82.4,11.41
336,Kathu,0,ZA,1578270156,55,-27.7,23.05,66.0,10.4
337,Victor Harbor,0,AU,1578270156,48,-35.55,138.62,66.99,11.41
338,Nosy Varika,31,MG,1578270156,93,-20.58,48.53,73.24,4.94
339,Zabaykalsk,100,CN,1578270156,87,49.64,117.33,3.24,5.26
340,Sarny,66,UA,1578270156,93,51.32,26.62,26.53,6.29
341,Olinda,90,AU,1578270157,100,-37.84,145.39,57.99,5.82
342,Nishihara,6,JP,1578270157,48,35.74,139.53,48.99,1.12
343,Khasan,72,RU,1578270157,76,42.43,130.64,19.42,3.2
344,Kholtoson,66,RU,1578270157,90,50.3,103.31,-4.79,3.24
345,Le Port,0,FR,1578270157,39,42.87,1.37,42.01,2.37
346,Antsohihy,100,MG,1578270157,94,-14.88,47.99,74.55,0.22
347,Los Llanos de Aridane,90,ES,1578270158,63,28.66,-17.92,64.4,8.05
348,Qasigiannguit,100,GL,1578270102,55,68.82,-51.19,10.4,10.29
349,Anori,37,BR,1578270159,73,-3.74,-61.66,80.06,2.66
350,Santa Fe,44,AR,1578270160,43,-31.62,-60.7,84.99,5.01
351,Meulaboh,0,ID,1578270160,82,4.14,96.13,79.86,7.47
352,Malanje,100,AO,1578270160,98,-9.54,16.35,66.31,1.61
353,Sinazongwe,91,ZM,1578270160,79,-17.26,27.46,75.92,6.76
354,Oktyabrskoye,100,RU,1578270160,94,56.73,85.44,27.0,8.21
355,South Lake Tahoe,1,US,1578270029,28,38.93,-119.98,51.01,4.7
356,Halifax,90,CA,1578270161,100,44.65,-63.58,28.0,25.28
357,Iznoski,17,RU,1578270161,94,54.99,35.31,24.53,6.13
358,Evensk,16,RU,1578270161,45,61.92,159.24,-2.43,3.89
359,Claye-Souilly,14,FR,1578270161,75,48.95,2.69,42.01,5.82
360,Tautira,40,PF,1578270162,62,-17.73,-149.15,87.8,4.7
361,Dawson Creek,20,CA,1578270162,72,55.76,-120.23,32.0,23.04
362,Dingle,48,PH,1578270162,92,11.0,122.67,75.88,11.9
363,Taksimo,9,RU,1578270162,95,56.36,114.84,-10.39,0.4
364,Manokwari,88,ID,1578270163,74,-0.87,134.08,78.49,2.35
365,Nizhniy Odes,99,RU,1578270163,96,63.64,54.86,15.42,5.79
366,Egvekinot,28,RU,1578270163,84,66.32,-179.17,-12.01,9.57
367,Kijang,90,KR,1578270163,73,35.24,129.21,39.2,4.7
368,Tucupita,38,VE,1578270163,87,9.06,-62.05,72.46,3.6
369,Xingyi,89,CN,1578270163,97,24.19,102.82,52.81,4.56
370,Samarai,99,PG,1578270164,69,-10.62,150.67,85.39,5.97
371,San Luis,93,AR,1578270164,72,-33.3,-66.34,64.92,20.74
372,Beira,0,ES,1578270164,100,43.2,-8.36,42.01,5.82
373,Ust-Nera,96,RU,1578270164,100,64.57,143.24,-23.15,1.61
374,Road Town,40,VG,1578270164,83,18.42,-64.62,78.8,1.12
375,Tabas,0,IR,1578270165,51,33.6,56.92,39.2,4.7
376,Voyvozh,95,RU,1578269945,95,62.89,54.96,16.36,5.53
377,Ankazoabo,47,MG,1578270165,80,-22.29,44.51,70.95,1.74
378,Ratnagiri,17,IN,1578270165,74,16.98,73.3,66.27,3.04
379,Inuvik,90,CA,1578270165,62,68.36,-133.71,-16.6,6.93
380,Port Keats,99,AU,1578270165,66,-14.25,129.55,86.65,10.45
381,Poum,1,MK,1578270166,67,41.28,20.71,23.58,6.85
382,Praia,86,BR,1578270166,83,-20.25,-43.81,73.4,3.91
383,Mineiros,3,BR,1578270166,92,-17.57,-52.55,69.98,8.19
384,Concepcion del Uruguay,0,AR,1578270166,53,-32.48,-58.24,80.01,3.0
385,Sebring,1,US,1578269949,50,27.5,-81.44,55.4,4.7
386,Kolomyya,100,UA,1578270168,95,48.53,25.04,25.66,8.28
387,Bereda,0,ES,1578270168,100,43.27,-7.54,41.0,5.82
388,Knysna,100,ZA,1578269944,93,-34.04,23.05,64.4,0.94
389,Altay,25,CN,1578270168,45,47.83,88.13,13.87,5.5
390,Adrar,0,DZ,1578270168,28,27.87,-0.29,46.4,8.05
391,Kyabe,0,TD,1578270168,27,9.45,18.94,69.85,4.23
392,Dire,20,ET,1578270169,76,9.18,38.92,53.6,5.82
393,Caceres,97,CO,1578270169,95,5.53,-74.53,69.96,2.39
394,Nipawin,1,CA,1578270169,71,53.36,-104.02,8.6,4.7
395,Ko Samui,20,TH,1578270169,94,9.54,99.94,75.2,10.0
396,Constitucion,75,MX,1578270169,11,23.99,-104.67,68.0,4.7
397,Kampot,20,KH,1578270169,94,10.62,104.18,71.6,2.24
398,Skjervoy,100,NO,1578270170,74,70.03,20.97,29.03,11.48
399,Yerbogachen,100,RU,1578270170,93,61.28,108.01,8.89,11.25
400,Parrita,40,CR,1578270170,77,9.52,-84.33,75.2,14.99
401,Salalah,75,OM,1578270170,78,17.01,54.1,75.2,3.36
402,Zhigansk,100,RU,1578270170,94,66.77,123.37,-9.53,16.67
403,Soe,100,EE,1578270171,68,57.91,26.05,30.2,11.41
404,Marsh Harbour,59,BS,1578270171,69,26.54,-77.06,66.56,21.88
405,Bolivar,1,US,1578270152,52,37.61,-93.41,46.99,8.05
406,Severo-Yeniseyskiy,80,RU,1578270171,91,60.37,93.04,16.0,9.95
407,Myskhako,75,RU,1578270171,93,44.66,37.76,44.01,8.95
408,Cariati,68,IT,1578270171,57,39.5,16.95,42.01,15.99
409,Maceio,100,BR,1578270035,88,-9.67,-35.74,75.2,4.7
410,Rio Gallegos,20,AR,1578270172,54,-51.62,-69.22,53.6,16.11
411,Shimoda,40,JP,1578270172,65,34.7,138.93,50.0,8.05
412,Gweta,95,BW,1578270172,78,-20.21,25.26,70.75,9.13
413,Lomas de Sargentillo,75,EC,1578269899,62,-1.88,-80.08,84.2,6.93
414,Ostrovnoy,57,RU,1578270064,93,68.05,39.51,10.02,15.66
415,Skibbereen,75,IE,1578270172,93,51.55,-9.27,46.4,18.34
416,Bien Hoa,20,VN,1578270113,94,10.95,106.82,73.4,2.24
417,Prachin Buri,0,TH,1578270173,70,14.05,101.37,81.0,3.06
418,Lazaro Cardenas,5,MX,1578270173,22,28.39,-105.62,64.4,4.7
419,Ugoofaaru,28,MV,1578270173,80,5.67,73.0,81.77,12.95
420,Mirnyy,94,RU,1578270173,90,56.57,36.46,28.44,5.95
421,Lakatoro,40,VU,1578270173,94,-16.11,167.42,86.0,12.75
422,Potsdam,75,DE,1578270077,86,52.4,13.06,39.99,8.05
423,Ambilobe,100,MG,1578270174,89,-13.19,49.05,76.84,1.21
424,Bambanglipuro,22,ID,1578270174,80,-7.95,110.28,78.55,2.3
425,Newcastle,75,AU,1578269937,64,-32.93,151.78,75.99,13.87
426,Hobyo,39,SO,1578270175,80,5.35,48.53,78.21,10.98
427,Mantua,0,IT,1578270176,80,45.16,10.79,44.01,4.7
428,Nioro,0,GM,1578270176,12,13.79,-15.05,67.87,10.13
429,Realeza,8,BR,1578269996,84,-25.77,-53.53,69.22,3.4
430,Te Anau,66,NZ,1578270176,75,-45.41,167.72,44.19,15.64
431,Cidreira,0,BR,1578270176,84,-30.17,-50.22,74.59,23.06
432,Daru,100,PG,1578270176,65,-9.07,143.21,85.41,5.48
433,College,97,US,1578270177,66,64.86,-147.8,-17.0,1.74
434,Abu Dhabi,47,AE,1578269992,73,24.47,54.37,69.8,8.05
435,Mount Isa,34,AU,1578270177,34,-20.73,139.49,93.2,9.17
436,Pangoa,95,PE,1578270177,98,-12.12,-73.0,70.38,1.95
437,Banjarmasin,40,ID,1578270177,94,-3.32,114.59,75.2,3.36
438,Whitehorse,75,CA,1578270177,75,60.72,-135.06,-16.01,4.7
439,Joshimath,78,IN,1578270178,44,30.57,79.57,27.45,7.4
440,Saint Stephen,1,US,1578270178,58,45.7,-94.27,28.4,18.34
441,Jerantut,16,MY,1578270178,97,3.94,102.37,68.05,2.71
442,Verkhoyansk,21,RU,1578270178,85,67.55,133.39,-27.92,0.76
443,Dunedin,54,NZ,1578269938,49,-45.87,170.5,55.99,34.0
444,Girona,0,ES,1578269996,86,41.98,2.82,52.0,4.14
445,Borogontsy,100,RU,1578270179,98,62.67,131.17,-5.37,4.68
446,Lamu,100,CN,1578270179,72,35.77,102.37,15.04,1.83
447,Vardo,90,US,1578270179,59,39.62,-77.74,35.6,3.36
448,Kirakira,100,SB,1578270179,76,-10.46,161.92,83.64,11.05
449,Ostersund,75,SE,1578270179,86,63.18,14.64,39.0,11.41
450,North Bend,20,US,1578270180,81,43.41,-124.22,50.0,6.93
451,Strathmore,40,CA,1578270180,34,51.04,-113.4,35.6,3.36
452,Minsk,40,BY,1578269987,73,53.9,27.56,26.6,2.24
453,Solnechnyy,0,RU,1578270180,86,50.72,136.64,0.19,1.19
454,Ellsworth,1,US,1578270180,51,38.73,-98.23,39.2,6.93
455,Vila Franca do Campo,75,PT,1578270180,93,37.72,-25.43,64.4,16.11
456,Taoudenni,15,ML,1578270181,19,22.68,-3.98,54.82,7.52
457,Ixtapa,5,MX,1578270181,45,20.71,-105.21,82.4,6.93
458,Waipawa,0,NZ,1578270181,56,-39.94,176.59,64.0,8.99
459,Puerto Colombia,71,CO,1578270181,74,10.99,-74.96,80.6,17.22
460,Vestmannaeyjar,100,IS,1578270181,91,63.44,-20.27,37.18,19.93
461,Ketchikan,75,US,1578270182,88,55.34,-131.65,35.6,4.7
462,Tchaourou,15,BJ,1578270182,36,8.89,2.6,73.69,2.8
463,Tamandare,45,BR,1578270182,69,-8.28,-70.75,79.92,2.66
464,Maracacume,100,BR,1578269906,96,-2.04,-45.96,74.35,2.66
465,Wadi Maliz,40,TN,1578270183,76,36.47,8.55,53.6,4.7
466,Oga,0,IT,1578270184,78,46.46,10.35,32.0,3.36
467,Sao Miguel do Araguaia,29,BR,1578270184,96,-13.28,-50.16,73.02,3.74
468,Miandrivazo,41,MG,1578270184,84,-19.53,45.46,78.03,1.68
469,Gravdal,100,NO,1578270184,93,59.79,5.78,46.4,10.29
470,Nyurba,95,RU,1578270184,100,63.29,118.35,-5.98,2.17
471,Sao Joao da Barra,100,BR,1578270184,88,-21.64,-41.05,77.77,4.85
472,Manhattan,1,US,1578270129,41,39.18,-96.57,42.01,5.46
473,Kishi,68,NG,1578270185,29,9.08,3.85,72.72,2.35
474,Mansa,4,IN,1578270185,76,23.43,72.66,57.2,5.82
475,Skelleftea,64,SE,1578270185,86,64.75,20.95,28.4,9.17
476,Mufumbwe,100,ZM,1578270185,92,-13.68,24.8,65.95,3.2
477,Otane,0,NZ,1578270185,56,-39.89,176.62,64.0,8.99
478,Dong Hoi,2,VN,1578270186,94,17.48,106.6,66.58,2.08
479,French Harbor,90,HN,1578270186,88,16.35,-86.43,75.2,9.17
480,Vanavara,100,RU,1578270186,94,60.35,102.28,13.05,8.12
481,Shakiso,13,ET,1578270186,83,5.77,38.9,57.42,1.86
482,Pundri,100,IN,1578270186,46,29.76,76.56,55.0,8.46
483,Kavaratti,0,IN,1578270186,65,10.57,72.64,79.86,5.75
484,Nijar,0,ES,1578270187,87,36.97,-2.21,48.2,8.05
485,Terra Santa,42,BR,1578270187,68,-2.1,-56.49,80.78,2.44
486,Marsa Matruh,20,EG,1578270187,71,31.35,27.25,50.0,13.87
487,Tczew,75,PL,1578270187,83,54.09,18.8,36.0,9.17
488,Zalantun,100,CN,1578270187,96,48.0,122.72,6.93,2.46
489,Katobu,100,ID,1578270188,86,-4.94,122.53,80.08,5.7
490,Port Hedland,100,AU,1578269905,49,-20.31,118.58,89.6,12.75
491,Sierra Vista,1,US,1578270177,16,31.55,-110.3,71.6,3.33
492,Montrose,75,GB,1578270188,81,56.71,-2.47,51.8,14.99
493,Kauhajoki,90,FI,1578270188,92,62.43,22.18,30.2,8.05
494,Beboto,0,TD,1578270188,29,8.27,16.94,69.12,3.87
495,Timbuktu,28,ML,1578269929,20,16.77,-3.01,60.71,10.27
496,Isla Mujeres,40,MX,1578270002,69,21.23,-86.73,73.4,3.36
497,Harwich,1,US,1578270189,55,41.69,-70.08,36.0,6.93
498,Hlukhiv,75,UA,1578270189,92,51.68,33.91,28.6,7.81
499,Aasiaat,100,GL,1578270189,95,68.71,-52.87,5.32,16.89
500,Dzilam Gonzalez,97,MX,1578270189,73,21.28,-88.93,72.7,16.06
501,Chunskiy,100,RU,1578270190,94,56.08,99.63,22.93,7.81
502,Lufkin,1,US,1578270190,48,31.34,-94.73,62.6,4.7
503,Byron Bay,40,AU,1578270190,74,-28.65,153.62,88.0,17.22
504,Okhotsk,0,RU,1578270190,76,59.36,143.24,2.62,11.18
505,Anzio,0,IT,1578270190,55,41.45,12.63,45.0,1.12
506,Baiyin,90,CN,1578270191,57,36.55,104.13,27.0,2.24
507,Savigliano,0,IT,1578270191,69,44.64,7.66,39.99,3.36
508,Port Moresby,40,PG,1578270191,59,-9.47,147.16,89.6,6.93
509,Komsomolskiy,93,RU,1578270191,94,67.55,63.78,9.14,17.02
510,Nemuro,20,JP,1578270191,58,43.32,145.57,26.6,23.04
511,Port Augusta,56,AU,1578270191,93,-32.49,137.76,61.0,3.22
512,Gat,0,SN,1578270192,30,14.69,-16.54,69.8,2.24
513,Dareda,80,TZ,1578270192,95,-4.22,35.56,55.89,1.74
514,Singaraja,82,ID,1578270192,78,-8.11,115.08,82.78,9.06
515,Yaan,99,NG,1578270192,22,7.38,8.57,76.82,5.08
516,Sari,40,IR,1578270192,93,36.57,53.06,50.0,2.8
517,Dalbandin,100,PK,1578270192,82,28.9,64.41,57.7,9.51
518,Nueva Rosita,0,MX,1578270193,28,27.94,-101.22,63.66,5.77
519,Nuuk,90,GL,1578270150,92,64.17,-51.74,8.6,26.4
520,Hare Bay,90,CA,1578270193,100,48.86,-53.99,24.8,24.16
521,Bandarbeyla,100,SO,1578270193,79,9.49,50.81,78.78,7.49
522,Paamiut,100,GL,1578270193,94,61.99,-49.67,17.69,35.77
